{
  "features": [
    {
      "geometry": {
        "coordinates": [
          -56.1842,
          -34.9056
        ],
        "type": "Point"
      },
      "properties": {
        "city": "Montevideo",
        "country": "Uruguay",
        "lat": -34.9056,
        "lng": -56.1842,
        "population": 1719453
      },
      "type": "Feature"
    },
    {
      "geometry": {
        "coordinates": [
          -65.4167,
          -24.7833
        ],
        "type": "Point"
      },
      "properties": {
        "city": "Salta",
        "country": "Argentina",
        "lat": -24.7833,
        "lng": -65.4167,
        "population": 535303
      },
      "type": "Feature"
    },
    {
      "geometry": {
        "coordinates": [
          35.4833,
          38.7333
        ],
        "type": "Point"
      },
      "properties": {
        "city": "Kocasinan",
        "country": "Turkey",
        "lat": 38.7333,
        "lng": 35.4833,
        "population": 409005
      },
      "type": "Feature"
    },
    {
      "geometry": {
        "coordinates": [
          67.1167,
          36.7
        ],
        "type": "Point"
      },
      "properties": {
        "city": "Maz\u0101r-e Shar\u012bf",
        "country": "Afghanistan",
        "lat": 36.7,
        "lng": 67.1167,
        "population": 469247
      },
      "type": "Feature"
    },
    {
      "geometry": {
        "coordinates": [
          103.8484,
          30.0771
        ],
        "type": "Point"
      },
      "properties": {
        "city": "Meishan",
        "country": "China",
        "lat": 30.0771,
        "lng": 103.8484,
        "population": 2950545
      },
      "type": "Feature"
    },
    {
      "geometry": {
        "coordinates": [
          103.8268,
          36.0606
        ],
        "type": "Point"
      },
      "properties": {
        "city": "Lanzhou",
        "country": "China",
        "lat": 36.0606,
        "lng": 103.8268,
        "population": 3067141
      },
      "type": "Feature"
    },
    {
      "geometry": {
        "coordinates": [
          74.5,
          15.85
        ],
        "type": "Point"
      },
      "properties": {
        "city": "Belgaum",
        "country": "India",
        "lat": 15.85,
        "lng": 74.5,
        "population": 488157
      },
      "type": "Feature"
    },
    {
      "geometry": {
        "coordinates": [
          4.7167,
          7.6167
        ],
        "type": "Point"
      },
      "properties": {
        "city": "Ilesa",
        "country": "Nigeria",
        "lat": 7.6167,
        "lng": 4.7167,
        "population": 384334
      },
      "type": "Feature"
    },
    {
      "geometry": {
        "coordinates": [
          35.04,
          48.4675
        ],
        "type": "Point"
      },
      "properties": {
        "city": "Dnipro",
        "country": "Ukraine",
        "lat": 48.4675,
        "lng": 35.04,
        "population": 968502
      },
      "type": "Feature"
    },
    {
      "geometry": {
        "coordinates": [
          14.4214,
          50.0875
        ],
        "type": "Point"
      },
      "properties": {
        "city": "Prague",
        "country": "Czechia",
        "lat": 50.0875,
        "lng": 14.4214,
        "population": 1384732
      },
      "type": "Feature"
    },
    {
      "geometry": {
        "coordinates": [
          -63.5906,
          44.6475
        ],
        "type": "Point"
      },
      "properties": {
        "city": "Halifax",
        "country": "Canada",
        "lat": 44.6475,
        "lng": -63.5906,
        "population": 439819
      },
      "type": "Feature"
    },
    {
      "geometry": {
        "coordinates": [
          121.1622,
          13.9411
        ],
        "type": "Point"
      },
      "properties": {
        "city": "Lipa City",
        "country": "Philippines",
        "lat": 13.9411,
        "lng": 121.1622,
        "population": 372931
      },
      "type": "Feature"
    },
    {
      "geometry": {
        "coordinates": [
          35.3328,
          36.9831
        ],
        "type": "Point"
      },
      "properties": {
        "city": "Seyhan",
        "country": "Turkey",
        "lat": 36.9831,
        "lng": 35.3328,
        "population": 795012
      },
      "type": "Feature"
    },
    {
      "geometry": {
        "coordinates": [
          105.2875,
          29.3394
        ],
        "type": "Point"
      },
      "properties": {
        "city": "Jin\u2019e",
        "country": "China",
        "lat": 29.3394,
        "lng": 105.2875,
        "population": 568900
      },
      "type": "Feature"
    },
    {
      "geometry": {
        "coordinates": [
          75.32,
          19.88
        ],
        "type": "Point"
      },
      "properties": {
        "city": "Aurang\u0101b\u0101d",
        "country": "India",
        "lat": 19.88,
        "lng": 75.32,
        "population": 1175116
      },
      "type": "Feature"
    },
    {
      "geometry": {
        "coordinates": [
          74.5311,
          32.4925
        ],
        "type": "Point"
      },
      "properties": {
        "city": "Sialkot City",
        "country": "Pakistan",
        "lat": 32.4925,
        "lng": 74.5311,
        "population": 591668
      },
      "type": "Feature"
    },
    {
      "geometry": {
        "coordinates": [
          45.3419,
          2.0392
        ],
        "type": "Point"
      },
      "properties": {
        "city": "Mogadishu",
        "country": "Somalia",
        "lat": 2.0392,
        "lng": 45.3419,
        "population": 2120000
      },
      "type": "Feature"
    },
    {
      "geometry": {
        "coordinates": [
          120.894,
          31.981
        ],
        "type": "Point"
      },
      "properties": {
        "city": "Nantong",
        "country": "China",
        "lat": 31.981,
        "lng": 120.894,
        "population": 2261382
      },
      "type": "Feature"
    },
    {
      "geometry": {
        "coordinates": [
          111.5131,
          32.5401
        ],
        "type": "Point"
      },
      "properties": {
        "city": "Danjiangkou",
        "country": "China",
        "lat": 32.5401,
        "lng": 111.5131,
        "population": 409940
      },
      "type": "Feature"
    },
    {
      "geometry": {
        "coordinates": [
          -112.0892,
          33.5722
        ],
        "type": "Point"
      },
      "properties": {
        "city": "Phoenix",
        "country": "United States",
        "lat": 33.5722,
        "lng": -112.0892,
        "population": 4065338
      },
      "type": "Feature"
    },
    {
      "geometry": {
        "coordinates": [
          -84.422,
          33.7628
        ],
        "type": "Point"
      },
      "properties": {
        "city": "Atlanta",
        "country": "United States",
        "lat": 33.7628,
        "lng": -84.422,
        "population": 5211164
      },
      "type": "Feature"
    },
    {
      "geometry": {
        "coordinates": [
          -43.2056,
          -22.9111
        ],
        "type": "Point"
      },
      "properties": {
        "city": "Rio de Janeiro",
        "country": "Brazil",
        "lat": -22.9111,
        "lng": -43.2056,
        "population": 12592000
      },
      "type": "Feature"
    },
    {
      "geometry": {
        "coordinates": [
          -3.963,
          5.2568
        ],
        "type": "Point"
      },
      "properties": {
        "city": "Port-Bou\u00ebt",
        "country": "C\u00f4te d\u2019Ivoire",
        "lat": 5.2568,
        "lng": -3.963,
        "population": 618795
      },
      "type": "Feature"
    },
    {
      "geometry": {
        "coordinates": [
          -95.3885,
          29.786
        ],
        "type": "Point"
      },
      "properties": {
        "city": "Houston",
        "country": "United States",
        "lat": 29.786,
        "lng": -95.3885,
        "population": 6046392
      },
      "type": "Feature"
    },
    {
      "geometry": {
        "coordinates": [
          110.296,
          25.275
        ],
        "type": "Point"
      },
      "properties": {
        "city": "Guilin",
        "country": "China",
        "lat": 25.275,
        "lng": 110.296,
        "population": 4931137
      },
      "type": "Feature"
    },
    {
      "geometry": {
        "coordinates": [
          28.8903,
          41.0339
        ],
        "type": "Point"
      },
      "properties": {
        "city": "Esenler",
        "country": "Turkey",
        "lat": 41.0339,
        "lng": 28.8903,
        "population": 445421
      },
      "type": "Feature"
    },
    {
      "geometry": {
        "coordinates": [
          -96.9275,
          19.54
        ],
        "type": "Point"
      },
      "properties": {
        "city": "Xalapa",
        "country": "Mexico",
        "lat": 19.54,
        "lng": -96.9275,
        "population": 424755
      },
      "type": "Feature"
    },
    {
      "geometry": {
        "coordinates": [
          -100.3181,
          25.6844
        ],
        "type": "Point"
      },
      "properties": {
        "city": "Monterrey",
        "country": "Mexico",
        "lat": 25.6844,
        "lng": -100.3181,
        "population": 5324281
      },
      "type": "Feature"
    },
    {
      "geometry": {
        "coordinates": [
          39.7203,
          43.5853
        ],
        "type": "Point"
      },
      "properties": {
        "city": "Sochi",
        "country": "Russia",
        "lat": 43.5853,
        "lng": 39.7203,
        "population": 444989
      },
      "type": "Feature"
    },
    {
      "geometry": {
        "coordinates": [
          79.91,
          27.88
        ],
        "type": "Point"
      },
      "properties": {
        "city": "Sh\u0101hj\u0101npur",
        "country": "India",
        "lat": 27.88,
        "lng": 79.91,
        "population": 346103
      },
      "type": "Feature"
    },
    {
      "geometry": {
        "coordinates": [
          47.2333,
          56.15
        ],
        "type": "Point"
      },
      "properties": {
        "city": "Cheboksary",
        "country": "Russia",
        "lat": 56.15,
        "lng": 47.2333,
        "population": 496350
      },
      "type": "Feature"
    },
    {
      "geometry": {
        "coordinates": [
          116.682,
          23.354
        ],
        "type": "Point"
      },
      "properties": {
        "city": "Shantou",
        "country": "China",
        "lat": 23.354,
        "lng": 116.682,
        "population": 4312192
      },
      "type": "Feature"
    },
    {
      "geometry": {
        "coordinates": [
          3.3483,
          7.1608
        ],
        "type": "Point"
      },
      "properties": {
        "city": "Abeokuta",
        "country": "Nigeria",
        "lat": 7.1608,
        "lng": 3.3483,
        "population": 888924
      },
      "type": "Feature"
    },
    {
      "geometry": {
        "coordinates": [
          -83.5827,
          41.6638
        ],
        "type": "Point"
      },
      "properties": {
        "city": "Toledo",
        "country": "United States",
        "lat": 41.6638,
        "lng": -83.5827,
        "population": 492076
      },
      "type": "Feature"
    },
    {
      "geometry": {
        "coordinates": [
          2.1175,
          13.515
        ],
        "type": "Point"
      },
      "properties": {
        "city": "Niamey",
        "country": "Niger",
        "lat": 13.515,
        "lng": 2.1175,
        "population": 1496260
      },
      "type": "Feature"
    },
    {
      "geometry": {
        "coordinates": [
          120.563,
          32.535
        ],
        "type": "Point"
      },
      "properties": {
        "city": "Hai\u2019an",
        "country": "China",
        "lat": 32.535,
        "lng": 120.563,
        "population": 874334
      },
      "type": "Feature"
    },
    {
      "geometry": {
        "coordinates": [
          20.22,
          30.77
        ],
        "type": "Point"
      },
      "properties": {
        "city": "Ajd\u0101biy\u0101",
        "country": "Libya",
        "lat": 30.77,
        "lng": 20.22,
        "population": 416000
      },
      "type": "Feature"
    },
    {
      "geometry": {
        "coordinates": [
          54.3667,
          24.4667
        ],
        "type": "Point"
      },
      "properties": {
        "city": "Abu Dhabi",
        "country": "United Arab Emirates",
        "lat": 24.4667,
        "lng": 54.3667,
        "population": 1483000
      },
      "type": "Feature"
    },
    {
      "geometry": {
        "coordinates": [
          68.78,
          38.5367
        ],
        "type": "Point"
      },
      "properties": {
        "city": "Dushanbe",
        "country": "Tajikistan",
        "lat": 38.5367,
        "lng": 68.78,
        "population": 1564700
      },
      "type": "Feature"
    },
    {
      "geometry": {
        "coordinates": [
          93.5151,
          42.8193
        ],
        "type": "Point"
      },
      "properties": {
        "city": "Kumul",
        "country": "China",
        "lat": 42.8193,
        "lng": 93.5151,
        "population": 492096
      },
      "type": "Feature"
    },
    {
      "geometry": {
        "coordinates": [
          106.6838,
          20.8651
        ],
        "type": "Point"
      },
      "properties": {
        "city": "Haiphong",
        "country": "Vietnam",
        "lat": 20.8651,
        "lng": 106.6838,
        "population": 2310280
      },
      "type": "Feature"
    },
    {
      "geometry": {
        "coordinates": [
          48.4394,
          34.9078
        ],
        "type": "Point"
      },
      "properties": {
        "city": "Bah\u0101r",
        "country": "Iran",
        "lat": 34.9078,
        "lng": 48.4394,
        "population": 673405
      },
      "type": "Feature"
    },
    {
      "geometry": {
        "coordinates": [
          139.8167,
          35.6667
        ],
        "type": "Point"
      },
      "properties": {
        "city": "K\u014dt\u014d-ku",
        "country": "Japan",
        "lat": 35.6667,
        "lng": 139.8167,
        "population": 523419
      },
      "type": "Feature"
    },
    {
      "geometry": {
        "coordinates": [
          27.5586,
          53.9006
        ],
        "type": "Point"
      },
      "properties": {
        "city": "Minsk",
        "country": "Belarus",
        "lat": 53.9006,
        "lng": 27.5586,
        "population": 1992862
      },
      "type": "Feature"
    },
    {
      "geometry": {
        "coordinates": [
          -67.0333,
          10.6
        ],
        "type": "Point"
      },
      "properties": {
        "city": "Catia La Mar",
        "country": "Venezuela",
        "lat": 10.6,
        "lng": -67.0333,
        "population": 661897
      },
      "type": "Feature"
    },
    {
      "geometry": {
        "coordinates": [
          -79.0288,
          -8.112
        ],
        "type": "Point"
      },
      "properties": {
        "city": "Trujillo",
        "country": "Peru",
        "lat": -8.112,
        "lng": -79.0288,
        "population": 935147
      },
      "type": "Feature"
    },
    {
      "geometry": {
        "coordinates": [
          120.625,
          27.7833
        ],
        "type": "Point"
      },
      "properties": {
        "city": "Rui\u2019an",
        "country": "China",
        "lat": 27.7833,
        "lng": 120.625,
        "population": 1424667
      },
      "type": "Feature"
    },
    {
      "geometry": {
        "coordinates": [
          117.087,
          36.202
        ],
        "type": "Point"
      },
      "properties": {
        "city": "Tai\u2019an",
        "country": "China",
        "lat": 36.202,
        "lng": 117.087,
        "population": 5472217
      },
      "type": "Feature"
    },
    {
      "geometry": {
        "coordinates": [
          119.4,
          41.25
        ],
        "type": "Point"
      },
      "properties": {
        "city": "Lingyuan",
        "country": "China",
        "lat": 41.25,
        "lng": 119.4,
        "population": 540832
      },
      "type": "Feature"
    },
    {
      "geometry": {
        "coordinates": [
          -47.6493,
          -22.7252
        ],
        "type": "Point"
      },
      "properties": {
        "city": "Piracicaba",
        "country": "Brazil",
        "lat": -22.7252,
        "lng": -47.6493,
        "population": 423323
      },
      "type": "Feature"
    },
    {
      "geometry": {
        "coordinates": [
          2.65,
          39.5667
        ],
        "type": "Point"
      },
      "properties": {
        "city": "Palma",
        "country": "Spain",
        "lat": 39.5667,
        "lng": 2.65,
        "population": 550000
      },
      "type": "Feature"
    },
    {
      "geometry": {
        "coordinates": [
          -72.3386,
          18.5425
        ],
        "type": "Point"
      },
      "properties": {
        "city": "Port-au-Prince",
        "country": "Haiti",
        "lat": 18.5425,
        "lng": -72.3386,
        "population": 987310
      },
      "type": "Feature"
    },
    {
      "geometry": {
        "coordinates": [
          104.2,
          31.3333
        ],
        "type": "Point"
      },
      "properties": {
        "city": "Jiannan",
        "country": "China",
        "lat": 31.3333,
        "lng": 104.2,
        "population": 439958
      },
      "type": "Feature"
    },
    {
      "geometry": {
        "coordinates": [
          127.965,
          45.207
        ],
        "type": "Point"
      },
      "properties": {
        "city": "Shangzhi",
        "country": "China",
        "lat": 45.207,
        "lng": 127.965,
        "population": 463358
      },
      "type": "Feature"
    },
    {
      "geometry": {
        "coordinates": [
          77.7567,
          8.7136
        ],
        "type": "Point"
      },
      "properties": {
        "city": "Tinnevelly",
        "country": "India",
        "lat": 8.7136,
        "lng": 77.7567,
        "population": 411298
      },
      "type": "Feature"
    },
    {
      "geometry": {
        "coordinates": [
          41.132,
          37.887
        ],
        "type": "Point"
      },
      "properties": {
        "city": "Batman",
        "country": "Turkey",
        "lat": 37.887,
        "lng": 41.132,
        "population": 452157
      },
      "type": "Feature"
    },
    {
      "geometry": {
        "coordinates": [
          109.12,
          21.481
        ],
        "type": "Point"
      },
      "properties": {
        "city": "Beihai",
        "country": "China",
        "lat": 21.481,
        "lng": 109.12,
        "population": 1680000
      },
      "type": "Feature"
    },
    {
      "geometry": {
        "coordinates": [
          -64.1675,
          10.4564
        ],
        "type": "Point"
      },
      "properties": {
        "city": "Cuman\u00e1",
        "country": "Venezuela",
        "lat": 10.4564,
        "lng": -64.1675,
        "population": 405626
      },
      "type": "Feature"
    },
    {
      "geometry": {
        "coordinates": [
          124.8347,
          1.4858
        ],
        "type": "Point"
      },
      "properties": {
        "city": "Manado Light",
        "country": "Indonesia",
        "lat": 1.4858,
        "lng": 124.8347,
        "population": 461636
      },
      "type": "Feature"
    },
    {
      "geometry": {
        "coordinates": [
          106.0112,
          -6.0027
        ],
        "type": "Point"
      },
      "properties": {
        "city": "Cilegon",
        "country": "Indonesia",
        "lat": -6.0027,
        "lng": 106.0112,
        "population": 387543
      },
      "type": "Feature"
    },
    {
      "geometry": {
        "coordinates": [
          115.7786,
          33.8463
        ],
        "type": "Point"
      },
      "properties": {
        "city": "Bozhou",
        "country": "China",
        "lat": 33.8463,
        "lng": 115.7786,
        "population": 4850657
      },
      "type": "Feature"
    },
    {
      "geometry": {
        "coordinates": [
          99.161,
          25.112
        ],
        "type": "Point"
      },
      "properties": {
        "city": "Baoshan",
        "country": "China",
        "lat": 25.112,
        "lng": 99.161,
        "population": 2431211
      },
      "type": "Feature"
    },
    {
      "geometry": {
        "coordinates": [
          115.73,
          24.1347
        ],
        "type": "Point"
      },
      "properties": {
        "city": "Xingcheng",
        "country": "China",
        "lat": 24.1347,
        "lng": 115.73,
        "population": 779411
      },
      "type": "Feature"
    },
    {
      "geometry": {
        "coordinates": [
          120.995,
          14.5439
        ],
        "type": "Point"
      },
      "properties": {
        "city": "Pasay City",
        "country": "Philippines",
        "lat": 14.5439,
        "lng": 120.995,
        "population": 440656
      },
      "type": "Feature"
    },
    {
      "geometry": {
        "coordinates": [
          -76.1437,
          43.0407
        ],
        "type": "Point"
      },
      "properties": {
        "city": "Syracuse",
        "country": "United States",
        "lat": 43.0407,
        "lng": -76.1437,
        "population": 407625
      },
      "type": "Feature"
    },
    {
      "geometry": {
        "coordinates": [
          116.1944,
          40.2248
        ],
        "type": "Point"
      },
      "properties": {
        "city": "Changping",
        "country": "China",
        "lat": 40.2248,
        "lng": 116.1944,
        "population": 614821
      },
      "type": "Feature"
    },
    {
      "geometry": {
        "coordinates": [
          85.1376,
          25.594
        ],
        "type": "Point"
      },
      "properties": {
        "city": "Patna",
        "country": "India",
        "lat": 25.594,
        "lng": 85.1376,
        "population": 1684222
      },
      "type": "Feature"
    },
    {
      "geometry": {
        "coordinates": [
          72.3333,
          40.7833
        ],
        "type": "Point"
      },
      "properties": {
        "city": "Andijon",
        "country": "Uzbekistan",
        "lat": 40.7833,
        "lng": 72.3333,
        "population": 747800
      },
      "type": "Feature"
    },
    {
      "geometry": {
        "coordinates": [
          113.9268,
          35.3036
        ],
        "type": "Point"
      },
      "properties": {
        "city": "Nangandao",
        "country": "China",
        "lat": 35.3036,
        "lng": 113.9268,
        "population": 5708191
      },
      "type": "Feature"
    },
    {
      "geometry": {
        "coordinates": [
          -0.8833,
          41.65
        ],
        "type": "Point"
      },
      "properties": {
        "city": "Zaragoza",
        "country": "Spain",
        "lat": 41.65,
        "lng": -0.8833,
        "population": 686986
      },
      "type": "Feature"
    },
    {
      "geometry": {
        "coordinates": [
          120.263,
          32.009
        ],
        "type": "Point"
      },
      "properties": {
        "city": "Jingcheng",
        "country": "China",
        "lat": 32.009,
        "lng": 120.263,
        "population": 663408
      },
      "type": "Feature"
    },
    {
      "geometry": {
        "coordinates": [
          15.3775,
          -4.4089
        ],
        "type": "Point"
      },
      "properties": {
        "city": "Ndjili",
        "country": "Congo (Kinshasa)",
        "lat": -4.4089,
        "lng": 15.3775,
        "population": 442138
      },
      "type": "Feature"
    },
    {
      "geometry": {
        "coordinates": [
          100.4942,
          13.7525
        ],
        "type": "Point"
      },
      "properties": {
        "city": "Bangkok",
        "country": "Thailand",
        "lat": 13.7525,
        "lng": 100.4942,
        "population": 18007000
      },
      "type": "Feature"
    },
    {
      "geometry": {
        "coordinates": [
          77.1,
          28.85
        ],
        "type": "Point"
      },
      "properties": {
        "city": "Narela",
        "country": "India",
        "lat": 28.85,
        "lng": 77.1,
        "population": 809913
      },
      "type": "Feature"
    },
    {
      "geometry": {
        "coordinates": [
          46.6241,
          6.1393
        ],
        "type": "Point"
      },
      "properties": {
        "city": "Cadaado",
        "country": "Somalia",
        "lat": 6.1393,
        "lng": 46.6241,
        "population": 510654
      },
      "type": "Feature"
    },
    {
      "geometry": {
        "coordinates": [
          115.669,
          37.739
        ],
        "type": "Point"
      },
      "properties": {
        "city": "Hengshui",
        "country": "China",
        "lat": 37.739,
        "lng": 115.669,
        "population": 4212933
      },
      "type": "Feature"
    },
    {
      "geometry": {
        "coordinates": [
          103.2422,
          35.6047
        ],
        "type": "Point"
      },
      "properties": {
        "city": "Linxia Chengguanzhen",
        "country": "China",
        "lat": 35.6047,
        "lng": 103.2422,
        "population": 355968
      },
      "type": "Feature"
    },
    {
      "geometry": {
        "coordinates": [
          139.7495,
          35.687
        ],
        "type": "Point"
      },
      "properties": {
        "city": "Tokyo",
        "country": "Japan",
        "lat": 35.687,
        "lng": 139.7495,
        "population": 37785000
      },
      "type": "Feature"
    },
    {
      "geometry": {
        "coordinates": [
          172.6361,
          -43.5311
        ],
        "type": "Point"
      },
      "properties": {
        "city": "Christchurch",
        "country": "New Zealand",
        "lat": -43.5311,
        "lng": 172.6361,
        "population": 383200
      },
      "type": "Feature"
    },
    {
      "geometry": {
        "coordinates": [
          32.8119,
          39.9719
        ],
        "type": "Point"
      },
      "properties": {
        "city": "Yenimahalle",
        "country": "Turkey",
        "lat": 39.9719,
        "lng": 32.8119,
        "population": 704652
      },
      "type": "Feature"
    },
    {
      "geometry": {
        "coordinates": [
          79.32,
          28.72
        ],
        "type": "Point"
      },
      "properties": {
        "city": "Sh\u012bshgarh",
        "country": "India",
        "lat": 28.72,
        "lng": 79.32,
        "population": 753815
      },
      "type": "Feature"
    },
    {
      "geometry": {
        "coordinates": [
          -0.6331,
          35.6969
        ],
        "type": "Point"
      },
      "properties": {
        "city": "Oran",
        "country": "Algeria",
        "lat": 35.6969,
        "lng": -0.6331,
        "population": 803329
      },
      "type": "Feature"
    },
    {
      "geometry": {
        "coordinates": [
          106.1986,
          37.9978
        ],
        "type": "Point"
      },
      "properties": {
        "city": "Wuzhong",
        "country": "China",
        "lat": 37.9978,
        "lng": 106.1986,
        "population": 1284000
      },
      "type": "Feature"
    },
    {
      "geometry": {
        "coordinates": [
          73.9878,
          31.7111
        ],
        "type": "Point"
      },
      "properties": {
        "city": "Shekhupura",
        "country": "Pakistan",
        "lat": 31.7111,
        "lng": 73.9878,
        "population": 473129
      },
      "type": "Feature"
    },
    {
      "geometry": {
        "coordinates": [
          39.6667,
          -4.05
        ],
        "type": "Point"
      },
      "properties": {
        "city": "Mombasa",
        "country": "Kenya",
        "lat": -4.05,
        "lng": 39.6667,
        "population": 1200000
      },
      "type": "Feature"
    },
    {
      "geometry": {
        "coordinates": [
          -70.2,
          8.6333
        ],
        "type": "Point"
      },
      "properties": {
        "city": "Barinas",
        "country": "Venezuela",
        "lat": 8.6333,
        "lng": -70.2,
        "population": 397279
      },
      "type": "Feature"
    },
    {
      "geometry": {
        "coordinates": [
          5.2214,
          7.6211
        ],
        "type": "Point"
      },
      "properties": {
        "city": "Ado-Ekiti",
        "country": "Nigeria",
        "lat": 7.6211,
        "lng": 5.2214,
        "population": 446749
      },
      "type": "Feature"
    },
    {
      "geometry": {
        "coordinates": [
          -99.1947,
          19.5367
        ],
        "type": "Point"
      },
      "properties": {
        "city": "Tlalnepantla",
        "country": "Mexico",
        "lat": 19.5367,
        "lng": -99.1947,
        "population": 653410
      },
      "type": "Feature"
    },
    {
      "geometry": {
        "coordinates": [
          -95.9042,
          36.1283
        ],
        "type": "Point"
      },
      "properties": {
        "city": "Tulsa",
        "country": "United States",
        "lat": 36.1283,
        "lng": -95.9042,
        "population": 740620
      },
      "type": "Feature"
    },
    {
      "geometry": {
        "coordinates": [
          -115.2654,
          36.2333
        ],
        "type": "Point"
      },
      "properties": {
        "city": "Las Vegas",
        "country": "United States",
        "lat": 36.2333,
        "lng": -115.2654,
        "population": 2256509
      },
      "type": "Feature"
    },
    {
      "geometry": {
        "coordinates": [
          84.7941,
          19.315
        ],
        "type": "Point"
      },
      "properties": {
        "city": "Brahmapur",
        "country": "India",
        "lat": 19.315,
        "lng": 84.7941,
        "population": 355823
      },
      "type": "Feature"
    },
    {
      "geometry": {
        "coordinates": [
          40.9819,
          56.9967
        ],
        "type": "Point"
      },
      "properties": {
        "city": "Ivanovo",
        "country": "Russia",
        "lat": 56.9967,
        "lng": 40.9819,
        "population": 361644
      },
      "type": "Feature"
    },
    {
      "geometry": {
        "coordinates": [
          102.2465,
          2.2064
        ],
        "type": "Point"
      },
      "properties": {
        "city": "Melaka",
        "country": "Malaysia",
        "lat": 2.2064,
        "lng": 102.2465,
        "population": 455300
      },
      "type": "Feature"
    },
    {
      "geometry": {
        "coordinates": [
          112.844,
          34.167
        ],
        "type": "Point"
      },
      "properties": {
        "city": "Meishan",
        "country": "China",
        "lat": 34.167,
        "lng": 112.844,
        "population": 936000
      },
      "type": "Feature"
    },
    {
      "geometry": {
        "coordinates": [
          39.85,
          57.6167
        ],
        "type": "Point"
      },
      "properties": {
        "city": "Yaroslavl",
        "country": "Russia",
        "lat": 57.6167,
        "lng": 39.85,
        "population": 567443
      },
      "type": "Feature"
    },
    {
      "geometry": {
        "coordinates": [
          -64.1833,
          -31.4167
        ],
        "type": "Point"
      },
      "properties": {
        "city": "C\u00f3rdoba",
        "country": "Argentina",
        "lat": -31.4167,
        "lng": -64.1833,
        "population": 2106734
      },
      "type": "Feature"
    },
    {
      "geometry": {
        "coordinates": [
          24.9375,
          60.1708
        ],
        "type": "Point"
      },
      "properties": {
        "city": "Helsinki",
        "country": "Finland",
        "lat": 60.1708,
        "lng": 24.9375,
        "population": 1360075
      },
      "type": "Feature"
    },
    {
      "geometry": {
        "coordinates": [
          7.4653,
          51.5139
        ],
        "type": "Point"
      },
      "properties": {
        "city": "Dortmund",
        "country": "Germany",
        "lat": 51.5139,
        "lng": 7.4653,
        "population": 595471
      },
      "type": "Feature"
    },
    {
      "geometry": {
        "coordinates": [
          80.2667,
          50.4333
        ],
        "type": "Point"
      },
      "properties": {
        "city": "Semey",
        "country": "Kazakhstan",
        "lat": 50.4333,
        "lng": 80.2667,
        "population": 350201
      },
      "type": "Feature"
    },
    {
      "geometry": {
        "coordinates": [
          119.9884,
          36.7769
        ],
        "type": "Point"
      },
      "properties": {
        "city": "Pingdu",
        "country": "China",
        "lat": 36.7769,
        "lng": 119.9884,
        "population": 1191348
      },
      "type": "Feature"
    },
    {
      "geometry": {
        "coordinates": [
          -104.7605,
          38.8674
        ],
        "type": "Point"
      },
      "properties": {
        "city": "Colorado Springs",
        "country": "United States",
        "lat": 38.8674,
        "lng": -104.7605,
        "population": 638421
      },
      "type": "Feature"
    },
    {
      "geometry": {
        "coordinates": [
          101.698,
          3.1686
        ],
        "type": "Point"
      },
      "properties": {
        "city": "Kuala Lumpur",
        "country": "Malaysia",
        "lat": 3.1686,
        "lng": 101.698,
        "population": 8911000
      },
      "type": "Feature"
    },
    {
      "geometry": {
        "coordinates": [
          -51.1628,
          -23.31
        ],
        "type": "Point"
      },
      "properties": {
        "city": "Londrina",
        "country": "Brazil",
        "lat": -23.31,
        "lng": -51.1628,
        "population": 447065
      },
      "type": "Feature"
    },
    {
      "geometry": {
        "coordinates": [
          128.6631,
          35.2708
        ],
        "type": "Point"
      },
      "properties": {
        "city": "Changwon",
        "country": "Korea, South",
        "lat": 35.2708,
        "lng": 128.6631,
        "population": 1009998
      },
      "type": "Feature"
    },
    {
      "geometry": {
        "coordinates": [
          120.556,
          31.8767
        ],
        "type": "Point"
      },
      "properties": {
        "city": "Yangshe",
        "country": "China",
        "lat": 31.8767,
        "lng": 120.556,
        "population": 1447600
      },
      "type": "Feature"
    },
    {
      "geometry": {
        "coordinates": [
          88.37,
          22.5675
        ],
        "type": "Point"
      },
      "properties": {
        "city": "Kolk\u0101ta",
        "country": "India",
        "lat": 22.5675,
        "lng": 88.37,
        "population": 21747000
      },
      "type": "Feature"
    },
    {
      "geometry": {
        "coordinates": [
          88.43,
          26.71
        ],
        "type": "Point"
      },
      "properties": {
        "city": "Shiliguri",
        "country": "India",
        "lat": 26.71,
        "lng": 88.43,
        "population": 701489
      },
      "type": "Feature"
    },
    {
      "geometry": {
        "coordinates": [
          112.794,
          22.252
        ],
        "type": "Point"
      },
      "properties": {
        "city": "Taishan",
        "country": "China",
        "lat": 22.252,
        "lng": 112.794,
        "population": 907744
      },
      "type": "Feature"
    },
    {
      "geometry": {
        "coordinates": [
          -1.0872,
          50.8058
        ],
        "type": "Point"
      },
      "properties": {
        "city": "Portsmouth",
        "country": "United Kingdom",
        "lat": 50.8058,
        "lng": -1.0872,
        "population": 855679
      },
      "type": "Feature"
    },
    {
      "geometry": {
        "coordinates": [
          79.4306,
          28.3667
        ],
        "type": "Point"
      },
      "properties": {
        "city": "Bareilly",
        "country": "India",
        "lat": 28.3667,
        "lng": 79.4306,
        "population": 1000000
      },
      "type": "Feature"
    },
    {
      "geometry": {
        "coordinates": [
          30.899,
          28.8231
        ],
        "type": "Point"
      },
      "properties": {
        "city": "Al Fashn",
        "country": "Egypt",
        "lat": 28.8231,
        "lng": 30.899,
        "population": 512242
      },
      "type": "Feature"
    },
    {
      "geometry": {
        "coordinates": [
          111.917,
          37.027
        ],
        "type": "Point"
      },
      "properties": {
        "city": "Jiexiu",
        "country": "China",
        "lat": 37.027,
        "lng": 111.917,
        "population": 406517
      },
      "type": "Feature"
    },
    {
      "geometry": {
        "coordinates": [
          28.8564,
          41.0344
        ],
        "type": "Point"
      },
      "properties": {
        "city": "Ba\u011fc\u0131lar",
        "country": "Turkey",
        "lat": 41.0344,
        "lng": 28.8564,
        "population": 740069
      },
      "type": "Feature"
    },
    {
      "geometry": {
        "coordinates": [
          118.3564,
          35.1038
        ],
        "type": "Point"
      },
      "properties": {
        "city": "Linyi",
        "country": "China",
        "lat": 35.1038,
        "lng": 118.3564,
        "population": 10820000
      },
      "type": "Feature"
    },
    {
      "geometry": {
        "coordinates": [
          110.448,
          34.867
        ],
        "type": "Point"
      },
      "properties": {
        "city": "Yongji",
        "country": "China",
        "lat": 34.867,
        "lng": 110.448,
        "population": 394935
      },
      "type": "Feature"
    },
    {
      "geometry": {
        "coordinates": [
          60.8558,
          29.5025
        ],
        "type": "Point"
      },
      "properties": {
        "city": "Z\u0101hed\u0101n",
        "country": "Iran",
        "lat": 29.5025,
        "lng": 60.8558,
        "population": 587730
      },
      "type": "Feature"
    },
    {
      "geometry": {
        "coordinates": [
          47.0911,
          34.3369
        ],
        "type": "Point"
      },
      "properties": {
        "city": "Kerm\u0101nsh\u0101h",
        "country": "Iran",
        "lat": 34.3369,
        "lng": 47.0911,
        "population": 946651
      },
      "type": "Feature"
    },
    {
      "geometry": {
        "coordinates": [
          111.757,
          30.174
        ],
        "type": "Point"
      },
      "properties": {
        "city": "Songzi",
        "country": "China",
        "lat": 30.174,
        "lng": 111.757,
        "population": 654762
      },
      "type": "Feature"
    },
    {
      "geometry": {
        "coordinates": [
          48.3667,
          54.3167
        ],
        "type": "Point"
      },
      "properties": {
        "city": "Ulyanovsk",
        "country": "Russia",
        "lat": 54.3167,
        "lng": 48.3667,
        "population": 613334
      },
      "type": "Feature"
    },
    {
      "geometry": {
        "coordinates": [
          -87.204,
          14.1057
        ],
        "type": "Point"
      },
      "properties": {
        "city": "Tegucigalpa",
        "country": "Honduras",
        "lat": 14.1057,
        "lng": -87.204,
        "population": 1157509
      },
      "type": "Feature"
    },
    {
      "geometry": {
        "coordinates": [
          130.4017,
          33.59
        ],
        "type": "Point"
      },
      "properties": {
        "city": "Fukuoka",
        "country": "Japan",
        "lat": 33.59,
        "lng": 130.4017,
        "population": 2286000
      },
      "type": "Feature"
    },
    {
      "geometry": {
        "coordinates": [
          46.2992,
          38.0817
        ],
        "type": "Point"
      },
      "properties": {
        "city": "Tabr\u012bz",
        "country": "Iran",
        "lat": 38.0817,
        "lng": 46.2992,
        "population": 1558693
      },
      "type": "Feature"
    },
    {
      "geometry": {
        "coordinates": [
          123.75,
          10.32
        ],
        "type": "Point"
      },
      "properties": {
        "city": "Cebu City",
        "country": "Philippines",
        "lat": 10.32,
        "lng": 123.75,
        "population": 964169
      },
      "type": "Feature"
    },
    {
      "geometry": {
        "coordinates": [
          141.3544,
          43.0619
        ],
        "type": "Point"
      },
      "properties": {
        "city": "Sapporo",
        "country": "Japan",
        "lat": 43.0619,
        "lng": 141.3544,
        "population": 1959313
      },
      "type": "Feature"
    },
    {
      "geometry": {
        "coordinates": [
          -79.8271,
          36.0956
        ],
        "type": "Point"
      },
      "properties": {
        "city": "Greensboro",
        "country": "United States",
        "lat": 36.0956,
        "lng": -79.8271,
        "population": 345858
      },
      "type": "Feature"
    },
    {
      "geometry": {
        "coordinates": [
          74.6399,
          26.4499
        ],
        "type": "Point"
      },
      "properties": {
        "city": "Ajmer",
        "country": "India",
        "lat": 26.4499,
        "lng": 74.6399,
        "population": 551101
      },
      "type": "Feature"
    },
    {
      "geometry": {
        "coordinates": [
          29.2617,
          40.9683
        ],
        "type": "Point"
      },
      "properties": {
        "city": "Sultanbeyli",
        "country": "Turkey",
        "lat": 40.9683,
        "lng": 29.2617,
        "population": 358201
      },
      "type": "Feature"
    },
    {
      "geometry": {
        "coordinates": [
          139.85,
          35.7333
        ],
        "type": "Point"
      },
      "properties": {
        "city": "Katsushika-ku",
        "country": "Japan",
        "lat": 35.7333,
        "lng": 139.85,
        "population": 451772
      },
      "type": "Feature"
    },
    {
      "geometry": {
        "coordinates": [
          127.0167,
          37.2667
        ],
        "type": "Point"
      },
      "properties": {
        "city": "Suwon",
        "country": "Korea, South",
        "lat": 37.2667,
        "lng": 127.0167,
        "population": 1234300
      },
      "type": "Feature"
    },
    {
      "geometry": {
        "coordinates": [
          80.4428,
          16.3008
        ],
        "type": "Point"
      },
      "properties": {
        "city": "Gunt\u016br",
        "country": "India",
        "lat": 16.3008,
        "lng": 80.4428,
        "population": 670073
      },
      "type": "Feature"
    },
    {
      "geometry": {
        "coordinates": [
          37.9667,
          55.8167
        ],
        "type": "Point"
      },
      "properties": {
        "city": "Balashikha",
        "country": "Russia",
        "lat": 55.8167,
        "lng": 37.9667,
        "population": 530311
      },
      "type": "Feature"
    },
    {
      "geometry": {
        "coordinates": [
          79.5941,
          17.9689
        ],
        "type": "Point"
      },
      "properties": {
        "city": "Warangal",
        "country": "India",
        "lat": 17.9689,
        "lng": 79.5941,
        "population": 704570
      },
      "type": "Feature"
    },
    {
      "geometry": {
        "coordinates": [
          139.4858,
          35.9251
        ],
        "type": "Point"
      },
      "properties": {
        "city": "Kawagoe",
        "country": "Japan",
        "lat": 35.9251,
        "lng": 139.4858,
        "population": 354598
      },
      "type": "Feature"
    },
    {
      "geometry": {
        "coordinates": [
          119.162,
          36.708
        ],
        "type": "Point"
      },
      "properties": {
        "city": "Weifang",
        "country": "China",
        "lat": 36.708,
        "lng": 119.162,
        "population": 2636154
      },
      "type": "Feature"
    },
    {
      "geometry": {
        "coordinates": [
          49.1333,
          14.5333
        ],
        "type": "Point"
      },
      "properties": {
        "city": "Al Mukall\u0101",
        "country": "Yemen",
        "lat": 14.5333,
        "lng": 49.1333,
        "population": 594951
      },
      "type": "Feature"
    },
    {
      "geometry": {
        "coordinates": [
          72.8775,
          19.0761
        ],
        "type": "Point"
      },
      "properties": {
        "city": "Mumbai",
        "country": "India",
        "lat": 19.0761,
        "lng": 72.8775,
        "population": 24973000
      },
      "type": "Feature"
    },
    {
      "geometry": {
        "coordinates": [
          105.1862,
          25.435
        ],
        "type": "Point"
      },
      "properties": {
        "city": "Xingren",
        "country": "China",
        "lat": 25.435,
        "lng": 105.1862,
        "population": 417919
      },
      "type": "Feature"
    },
    {
      "geometry": {
        "coordinates": [
          32.2294,
          -2.8714
        ],
        "type": "Point"
      },
      "properties": {
        "city": "Geita",
        "country": "Tanzania",
        "lat": -2.8714,
        "lng": 32.2294,
        "population": 361671
      },
      "type": "Feature"
    },
    {
      "geometry": {
        "coordinates": [
          3.3258,
          6.6219
        ],
        "type": "Point"
      },
      "properties": {
        "city": "Agege",
        "country": "Nigeria",
        "lat": 6.6219,
        "lng": 3.3258,
        "population": 683600
      },
      "type": "Feature"
    },
    {
      "geometry": {
        "coordinates": [
          118.8593,
          28.9702
        ],
        "type": "Point"
      },
      "properties": {
        "city": "Quzhou",
        "country": "China",
        "lat": 28.9702,
        "lng": 118.8593,
        "population": 902767
      },
      "type": "Feature"
    },
    {
      "geometry": {
        "coordinates": [
          -98.9683,
          19.7131
        ],
        "type": "Point"
      },
      "properties": {
        "city": "Tec\u00e1mac",
        "country": "Mexico",
        "lat": 19.7131,
        "lng": -98.9683,
        "population": 364579
      },
      "type": "Feature"
    },
    {
      "geometry": {
        "coordinates": [
          69.1783,
          34.5253
        ],
        "type": "Point"
      },
      "properties": {
        "city": "Kabul",
        "country": "Afghanistan",
        "lat": 34.5253,
        "lng": 69.1783,
        "population": 4273156
      },
      "type": "Feature"
    },
    {
      "geometry": {
        "coordinates": [
          -116.6058,
          31.8578
        ],
        "type": "Point"
      },
      "properties": {
        "city": "Ensenada",
        "country": "Mexico",
        "lat": 31.8578,
        "lng": -116.6058,
        "population": 557430
      },
      "type": "Feature"
    },
    {
      "geometry": {
        "coordinates": [
          75.1376,
          15.3502
        ],
        "type": "Point"
      },
      "properties": {
        "city": "Hubli",
        "country": "India",
        "lat": 15.3502,
        "lng": 75.1376,
        "population": 943788
      },
      "type": "Feature"
    },
    {
      "geometry": {
        "coordinates": [
          120.2333,
          29.7167
        ],
        "type": "Point"
      },
      "properties": {
        "city": "Zhuji",
        "country": "China",
        "lat": 29.7167,
        "lng": 120.2333,
        "population": 1157938
      },
      "type": "Feature"
    },
    {
      "geometry": {
        "coordinates": [
          118.8825,
          42.255
        ],
        "type": "Point"
      },
      "properties": {
        "city": "Chifeng",
        "country": "China",
        "lat": 42.255,
        "lng": 118.8825,
        "population": 4035967
      },
      "type": "Feature"
    },
    {
      "geometry": {
        "coordinates": [
          -63.1975,
          -17.7892
        ],
        "type": "Point"
      },
      "properties": {
        "city": "Santa Cruz de la Sierra",
        "country": "Bolivia",
        "lat": -17.7892,
        "lng": -63.1975,
        "population": 3151676
      },
      "type": "Feature"
    },
    {
      "geometry": {
        "coordinates": [
          35.3833,
          14.0333
        ],
        "type": "Point"
      },
      "properties": {
        "city": "Gedaref",
        "country": "Sudan",
        "lat": 14.0333,
        "lng": 35.3833,
        "population": 354927
      },
      "type": "Feature"
    },
    {
      "geometry": {
        "coordinates": [
          114.1898,
          22.3802
        ],
        "type": "Point"
      },
      "properties": {
        "city": "Sha Tin",
        "country": "Hong Kong",
        "lat": 22.3802,
        "lng": 114.1898,
        "population": 640000
      },
      "type": "Feature"
    },
    {
      "geometry": {
        "coordinates": [
          68.3683,
          25.3792
        ],
        "type": "Point"
      },
      "properties": {
        "city": "Hyderabad City",
        "country": "Pakistan",
        "lat": 25.3792,
        "lng": 68.3683,
        "population": 1732693
      },
      "type": "Feature"
    },
    {
      "geometry": {
        "coordinates": [
          118.333,
          32.256
        ],
        "type": "Point"
      },
      "properties": {
        "city": "Chuzhou",
        "country": "China",
        "lat": 32.256,
        "lng": 118.333,
        "population": 3937868
      },
      "type": "Feature"
    },
    {
      "geometry": {
        "coordinates": [
          104.0556,
          1.1272
        ],
        "type": "Point"
      },
      "properties": {
        "city": "Batam Centre",
        "country": "Indonesia",
        "lat": 1.1272,
        "lng": 104.0556,
        "population": 1196396
      },
      "type": "Feature"
    },
    {
      "geometry": {
        "coordinates": [
          -72.2856,
          18.5098
        ],
        "type": "Point"
      },
      "properties": {
        "city": "P\u00e9tion-Ville",
        "country": "Haiti",
        "lat": 18.5098,
        "lng": -72.2856,
        "population": 359615
      },
      "type": "Feature"
    },
    {
      "geometry": {
        "coordinates": [
          -3.1792,
          51.4817
        ],
        "type": "Point"
      },
      "properties": {
        "city": "Caerdydd",
        "country": "United Kingdom",
        "lat": 51.4817,
        "lng": -3.1792,
        "population": 361469
      },
      "type": "Feature"
    },
    {
      "geometry": {
        "coordinates": [
          105.292,
          27.284
        ],
        "type": "Point"
      },
      "properties": {
        "city": "Bijie",
        "country": "China",
        "lat": 27.284,
        "lng": 105.292,
        "population": 6686100
      },
      "type": "Feature"
    },
    {
      "geometry": {
        "coordinates": [
          111.789,
          30.821
        ],
        "type": "Point"
      },
      "properties": {
        "city": "Dangyang",
        "country": "China",
        "lat": 30.821,
        "lng": 111.789,
        "population": 397465
      },
      "type": "Feature"
    },
    {
      "geometry": {
        "coordinates": [
          119.9333,
          37.1792
        ],
        "type": "Point"
      },
      "properties": {
        "city": "Weichanglu",
        "country": "China",
        "lat": 37.1792,
        "lng": 119.9333,
        "population": 824708
      },
      "type": "Feature"
    },
    {
      "geometry": {
        "coordinates": [
          126.7833,
          37.5
        ],
        "type": "Point"
      },
      "properties": {
        "city": "Bucheon",
        "country": "Korea, South",
        "lat": 37.5,
        "lng": 126.7833,
        "population": 772450
      },
      "type": "Feature"
    },
    {
      "geometry": {
        "coordinates": [
          139.4431,
          35.5542
        ],
        "type": "Point"
      },
      "properties": {
        "city": "Machida",
        "country": "Japan",
        "lat": 35.5542,
        "lng": 139.4431,
        "population": 434414
      },
      "type": "Feature"
    },
    {
      "geometry": {
        "coordinates": [
          30.0606,
          -1.9536
        ],
        "type": "Point"
      },
      "properties": {
        "city": "Kigali",
        "country": "Rwanda",
        "lat": -1.9536,
        "lng": 30.0606,
        "population": 1156663
      },
      "type": "Feature"
    },
    {
      "geometry": {
        "coordinates": [
          31.2422,
          30.1286
        ],
        "type": "Point"
      },
      "properties": {
        "city": "Shubr\u0101 al Khaymah",
        "country": "Egypt",
        "lat": 30.1286,
        "lng": 31.2422,
        "population": 1025569
      },
      "type": "Feature"
    },
    {
      "geometry": {
        "coordinates": [
          30.2167,
          13.1833
        ],
        "type": "Point"
      },
      "properties": {
        "city": "El Obeid",
        "country": "Sudan",
        "lat": 13.1833,
        "lng": 30.2167,
        "population": 418280
      },
      "type": "Feature"
    },
    {
      "geometry": {
        "coordinates": [
          96.1303,
          21.6131
        ],
        "type": "Point"
      },
      "properties": {
        "city": "Kyaukse",
        "country": "Burma",
        "lat": 21.6131,
        "lng": 96.1303,
        "population": 741071
      },
      "type": "Feature"
    },
    {
      "geometry": {
        "coordinates": [
          102.23,
          6.12
        ],
        "type": "Point"
      },
      "properties": {
        "city": "Kota Bharu",
        "country": "Malaysia",
        "lat": 6.12,
        "lng": 102.23,
        "population": 491237
      },
      "type": "Feature"
    },
    {
      "geometry": {
        "coordinates": [
          122.5167,
          40.6167
        ],
        "type": "Point"
      },
      "properties": {
        "city": "Dashiqiao",
        "country": "China",
        "lat": 40.6167,
        "lng": 122.5167,
        "population": 607098
      },
      "type": "Feature"
    },
    {
      "geometry": {
        "coordinates": [
          25.6,
          -33.9581
        ],
        "type": "Point"
      },
      "properties": {
        "city": "Gqeberha",
        "country": "South Africa",
        "lat": -33.9581,
        "lng": 25.6,
        "population": 967677
      },
      "type": "Feature"
    },
    {
      "geometry": {
        "coordinates": [
          -93.2678,
          44.9635
        ],
        "type": "Point"
      },
      "properties": {
        "city": "Minneapolis",
        "country": "United States",
        "lat": 44.9635,
        "lng": -93.2678,
        "population": 2906807
      },
      "type": "Feature"
    },
    {
      "geometry": {
        "coordinates": [
          73.7898,
          19.9975
        ],
        "type": "Point"
      },
      "properties": {
        "city": "N\u0101sik",
        "country": "India",
        "lat": 19.9975,
        "lng": 73.7898,
        "population": 1486053
      },
      "type": "Feature"
    },
    {
      "geometry": {
        "coordinates": [
          33.45,
          -8.9
        ],
        "type": "Point"
      },
      "properties": {
        "city": "Mbeya",
        "country": "Tanzania",
        "lat": -8.9,
        "lng": 33.45,
        "population": 541603
      },
      "type": "Feature"
    },
    {
      "geometry": {
        "coordinates": [
          -83.9496,
          35.9692
        ],
        "type": "Point"
      },
      "properties": {
        "city": "Knoxville",
        "country": "United States",
        "lat": 35.9692,
        "lng": -83.9496,
        "population": 618226
      },
      "type": "Feature"
    },
    {
      "geometry": {
        "coordinates": [
          -80.6333,
          -5.2
        ],
        "type": "Point"
      },
      "properties": {
        "city": "Piura",
        "country": "Peru",
        "lat": -5.2,
        "lng": -80.6333,
        "population": 473025
      },
      "type": "Feature"
    },
    {
      "geometry": {
        "coordinates": [
          111.287,
          30.692
        ],
        "type": "Point"
      },
      "properties": {
        "city": "Xiaoxita",
        "country": "China",
        "lat": 30.692,
        "lng": 111.287,
        "population": 4017607
      },
      "type": "Feature"
    },
    {
      "geometry": {
        "coordinates": [
          119.5477,
          26.6662
        ],
        "type": "Point"
      },
      "properties": {
        "city": "Ningde",
        "country": "China",
        "lat": 26.6662,
        "lng": 119.5477,
        "population": 2910000
      },
      "type": "Feature"
    },
    {
      "geometry": {
        "coordinates": [
          116.5833,
          38.0833
        ],
        "type": "Point"
      },
      "properties": {
        "city": "Botou",
        "country": "China",
        "lat": 38.0833,
        "lng": 116.5833,
        "population": 573842
      },
      "type": "Feature"
    },
    {
      "geometry": {
        "coordinates": [
          37.8053,
          48.0028
        ],
        "type": "Point"
      },
      "properties": {
        "city": "Donetsk",
        "country": "Ukraine",
        "lat": 48.0028,
        "lng": 37.8053,
        "population": 901645
      },
      "type": "Feature"
    },
    {
      "geometry": {
        "coordinates": [
          73.13,
          19.24
        ],
        "type": "Point"
      },
      "properties": {
        "city": "Kaly\u0101n",
        "country": "India",
        "lat": 19.24,
        "lng": 73.13,
        "population": 1246381
      },
      "type": "Feature"
    },
    {
      "geometry": {
        "coordinates": [
          46.71,
          24.65
        ],
        "type": "Point"
      },
      "properties": {
        "city": "Riyadh",
        "country": "Saudi Arabia",
        "lat": 24.65,
        "lng": 46.71,
        "population": 7237000
      },
      "type": "Feature"
    },
    {
      "geometry": {
        "coordinates": [
          -2.9236,
          43.2569
        ],
        "type": "Point"
      },
      "properties": {
        "city": "Bilbao",
        "country": "Spain",
        "lat": 43.2569,
        "lng": -2.9236,
        "population": 775000
      },
      "type": "Feature"
    },
    {
      "geometry": {
        "coordinates": [
          119.424,
          32.188
        ],
        "type": "Point"
      },
      "properties": {
        "city": "Zhenjiang",
        "country": "China",
        "lat": 32.188,
        "lng": 119.424,
        "population": 3113384
      },
      "type": "Feature"
    },
    {
      "geometry": {
        "coordinates": [
          17.1128,
          48.1447
        ],
        "type": "Point"
      },
      "properties": {
        "city": "Bratislava",
        "country": "Slovakia",
        "lat": 48.1447,
        "lng": 17.1128,
        "population": 475503
      },
      "type": "Feature"
    },
    {
      "geometry": {
        "coordinates": [
          111.007,
          35.0267
        ],
        "type": "Point"
      },
      "properties": {
        "city": "Yuncheng",
        "country": "China",
        "lat": 35.0267,
        "lng": 111.007,
        "population": 4774508
      },
      "type": "Feature"
    },
    {
      "geometry": {
        "coordinates": [
          -122.8489,
          49.19
        ],
        "type": "Point"
      },
      "properties": {
        "city": "Surrey",
        "country": "Canada",
        "lat": 49.19,
        "lng": -122.8489,
        "population": 568322
      },
      "type": "Feature"
    },
    {
      "geometry": {
        "coordinates": [
          122.823,
          41.997
        ],
        "type": "Point"
      },
      "properties": {
        "city": "Xinmin",
        "country": "China",
        "lat": 41.997,
        "lng": 122.823,
        "population": 565634
      },
      "type": "Feature"
    },
    {
      "geometry": {
        "coordinates": [
          120.0333,
          28.9
        ],
        "type": "Point"
      },
      "properties": {
        "city": "Guli",
        "country": "China",
        "lat": 28.9,
        "lng": 120.0333,
        "population": 723490
      },
      "type": "Feature"
    },
    {
      "geometry": {
        "coordinates": [
          112.9667,
          34.7667
        ],
        "type": "Point"
      },
      "properties": {
        "city": "Zijinglu",
        "country": "China",
        "lat": 34.7667,
        "lng": 112.9667,
        "population": 785242
      },
      "type": "Feature"
    },
    {
      "geometry": {
        "coordinates": [
          24.7453,
          59.4372
        ],
        "type": "Point"
      },
      "properties": {
        "city": "Tallinn",
        "country": "Estonia",
        "lat": 59.4372,
        "lng": 24.7453,
        "population": 638076
      },
      "type": "Feature"
    },
    {
      "geometry": {
        "coordinates": [
          107.0,
          -6.2333
        ],
        "type": "Point"
      },
      "properties": {
        "city": "Bekasi",
        "country": "Indonesia",
        "lat": -6.2333,
        "lng": 107.0,
        "population": 2381053
      },
      "type": "Feature"
    },
    {
      "geometry": {
        "coordinates": [
          70.3,
          28.42
        ],
        "type": "Point"
      },
      "properties": {
        "city": "Rahimyar Khan",
        "country": "Pakistan",
        "lat": 28.42,
        "lng": 70.3,
        "population": 420419
      },
      "type": "Feature"
    },
    {
      "geometry": {
        "coordinates": [
          73.68,
          24.58
        ],
        "type": "Point"
      },
      "properties": {
        "city": "Udaipur",
        "country": "India",
        "lat": 24.58,
        "lng": 73.68,
        "population": 451100
      },
      "type": "Feature"
    },
    {
      "geometry": {
        "coordinates": [
          -99.0148,
          19.4006
        ],
        "type": "Point"
      },
      "properties": {
        "city": "Ciudad Nezahualc\u00f3yotl",
        "country": "Mexico",
        "lat": 19.4006,
        "lng": -99.0148,
        "population": 1072676
      },
      "type": "Feature"
    },
    {
      "geometry": {
        "coordinates": [
          3.9208,
          6.8208
        ],
        "type": "Point"
      },
      "properties": {
        "city": "Ijebu-Ode",
        "country": "Nigeria",
        "lat": 6.8208,
        "lng": 3.9208,
        "population": 394246
      },
      "type": "Feature"
    },
    {
      "geometry": {
        "coordinates": [
          121.4547,
          30.9167
        ],
        "type": "Point"
      },
      "properties": {
        "city": "Nanqiao",
        "country": "China",
        "lat": 30.9167,
        "lng": 121.4547,
        "population": 361185
      },
      "type": "Feature"
    },
    {
      "geometry": {
        "coordinates": [
          120.771,
          41.801
        ],
        "type": "Point"
      },
      "properties": {
        "city": "Beipiao",
        "country": "China",
        "lat": 41.801,
        "lng": 120.771,
        "population": 439998
      },
      "type": "Feature"
    },
    {
      "geometry": {
        "coordinates": [
          36.2981,
          33.502
        ],
        "type": "Point"
      },
      "properties": {
        "city": "Damascus",
        "country": "Syria",
        "lat": 33.502,
        "lng": 36.2981,
        "population": 2584771
      },
      "type": "Feature"
    },
    {
      "geometry": {
        "coordinates": [
          125.703,
          44.535
        ],
        "type": "Point"
      },
      "properties": {
        "city": "Dehui",
        "country": "China",
        "lat": 44.535,
        "lng": 125.703,
        "population": 839786
      },
      "type": "Feature"
    },
    {
      "geometry": {
        "coordinates": [
          50.1408,
          53.2028
        ],
        "type": "Point"
      },
      "properties": {
        "city": "Samara",
        "country": "Russia",
        "lat": 53.2028,
        "lng": 50.1408,
        "population": 1156659
      },
      "type": "Feature"
    },
    {
      "geometry": {
        "coordinates": [
          12.5615,
          55.6805
        ],
        "type": "Point"
      },
      "properties": {
        "city": "Copenhagen",
        "country": "Denmark",
        "lat": 55.6805,
        "lng": 12.5615,
        "population": 1366301
      },
      "type": "Feature"
    },
    {
      "geometry": {
        "coordinates": [
          123.7649,
          41.3039
        ],
        "type": "Point"
      },
      "properties": {
        "city": "Benxi",
        "country": "China",
        "lat": 41.3039,
        "lng": 123.7649,
        "population": 1326018
      },
      "type": "Feature"
    },
    {
      "geometry": {
        "coordinates": [
          120.0753,
          29.3069
        ],
        "type": "Point"
      },
      "properties": {
        "city": "Yiwu",
        "country": "China",
        "lat": 29.3069,
        "lng": 120.0753,
        "population": 1234015
      },
      "type": "Feature"
    },
    {
      "geometry": {
        "coordinates": [
          -96.7667,
          32.7935
        ],
        "type": "Point"
      },
      "properties": {
        "city": "Dallas",
        "country": "United States",
        "lat": 32.7935,
        "lng": -96.7667,
        "population": 5843632
      },
      "type": "Feature"
    },
    {
      "geometry": {
        "coordinates": [
          106.9055,
          47.9214
        ],
        "type": "Point"
      },
      "properties": {
        "city": "Ulaanbaatar",
        "country": "Mongolia",
        "lat": 47.9214,
        "lng": 106.9055,
        "population": 1396288
      },
      "type": "Feature"
    },
    {
      "geometry": {
        "coordinates": [
          44.5147,
          48.7086
        ],
        "type": "Point"
      },
      "properties": {
        "city": "Volgograd",
        "country": "Russia",
        "lat": 48.7086,
        "lng": 44.5147,
        "population": 1004763
      },
      "type": "Feature"
    },
    {
      "geometry": {
        "coordinates": [
          144.9631,
          -37.8142
        ],
        "type": "Point"
      },
      "properties": {
        "city": "Melbourne",
        "country": "Australia",
        "lat": -37.8142,
        "lng": 144.9631,
        "population": 5031195
      },
      "type": "Feature"
    },
    {
      "geometry": {
        "coordinates": [
          120.5847,
          15.1472
        ],
        "type": "Point"
      },
      "properties": {
        "city": "Angeles City",
        "country": "Philippines",
        "lat": 15.1472,
        "lng": 120.5847,
        "population": 462928
      },
      "type": "Feature"
    },
    {
      "geometry": {
        "coordinates": [
          -72.6883,
          19.4456
        ],
        "type": "Point"
      },
      "properties": {
        "city": "Gona\u00efves",
        "country": "Haiti",
        "lat": 19.4456,
        "lng": -72.6883,
        "population": 356324
      },
      "type": "Feature"
    },
    {
      "geometry": {
        "coordinates": [
          135.4831,
          34.5733
        ],
        "type": "Point"
      },
      "properties": {
        "city": "Sakai",
        "country": "Japan",
        "lat": 34.5733,
        "lng": 135.4831,
        "population": 824408
      },
      "type": "Feature"
    },
    {
      "geometry": {
        "coordinates": [
          20.4569,
          44.8178
        ],
        "type": "Point"
      },
      "properties": {
        "city": "Belgrade",
        "country": "Serbia",
        "lat": 44.8178,
        "lng": 20.4569,
        "population": 1197714
      },
      "type": "Feature"
    },
    {
      "geometry": {
        "coordinates": [
          -103.3167,
          20.6167
        ],
        "type": "Point"
      },
      "properties": {
        "city": "Tlaquepaque",
        "country": "Mexico",
        "lat": 20.6167,
        "lng": -103.3167,
        "population": 664193
      },
      "type": "Feature"
    },
    {
      "geometry": {
        "coordinates": [
          -119.8483,
          39.5497
        ],
        "type": "Point"
      },
      "properties": {
        "city": "Reno",
        "country": "United States",
        "lat": 39.5497,
        "lng": -119.8483,
        "population": 454814
      },
      "type": "Feature"
    },
    {
      "geometry": {
        "coordinates": [
          113.3925,
          22.517
        ],
        "type": "Point"
      },
      "properties": {
        "city": "Zhongshan",
        "country": "China",
        "lat": 22.517,
        "lng": 113.3925,
        "population": 2909633
      },
      "type": "Feature"
    },
    {
      "geometry": {
        "coordinates": [
          -79.8692,
          43.2567
        ],
        "type": "Point"
      },
      "properties": {
        "city": "Hamilton",
        "country": "Canada",
        "lat": 43.2567,
        "lng": -79.8692,
        "population": 729560
      },
      "type": "Feature"
    },
    {
      "geometry": {
        "coordinates": [
          -80.4728,
          43.4186
        ],
        "type": "Point"
      },
      "properties": {
        "city": "Kitchener",
        "country": "Canada",
        "lat": 43.4186,
        "lng": -80.4728,
        "population": 522888
      },
      "type": "Feature"
    },
    {
      "geometry": {
        "coordinates": [
          89.55,
          22.8167
        ],
        "type": "Point"
      },
      "properties": {
        "city": "Khulna",
        "country": "Bangladesh",
        "lat": 22.8167,
        "lng": 89.55,
        "population": 928891
      },
      "type": "Feature"
    },
    {
      "geometry": {
        "coordinates": [
          31.3767,
          31.0592
        ],
        "type": "Point"
      },
      "properties": {
        "city": "\u0162alkh\u0101",
        "country": "Egypt",
        "lat": 31.0592,
        "lng": 31.3767,
        "population": 413584
      },
      "type": "Feature"
    },
    {
      "geometry": {
        "coordinates": [
          113.1216,
          23.0214
        ],
        "type": "Point"
      },
      "properties": {
        "city": "Foshan",
        "country": "China",
        "lat": 23.0214,
        "lng": 113.1216,
        "population": 9042500
      },
      "type": "Feature"
    },
    {
      "geometry": {
        "coordinates": [
          113.489,
          34.142
        ],
        "type": "Point"
      },
      "properties": {
        "city": "Yingchuan",
        "country": "China",
        "lat": 34.142,
        "lng": 113.489,
        "population": 1109782
      },
      "type": "Feature"
    },
    {
      "geometry": {
        "coordinates": [
          116.11,
          5.98
        ],
        "type": "Point"
      },
      "properties": {
        "city": "Kota Kinabalu",
        "country": "Malaysia",
        "lat": 5.98,
        "lng": 116.11,
        "population": 452058
      },
      "type": "Feature"
    },
    {
      "geometry": {
        "coordinates": [
          37.6175,
          55.7506
        ],
        "type": "Point"
      },
      "properties": {
        "city": "Moscow",
        "country": "Russia",
        "lat": 55.7506,
        "lng": 37.6175,
        "population": 17332000
      },
      "type": "Feature"
    },
    {
      "geometry": {
        "coordinates": [
          92.3667,
          20.8167
        ],
        "type": "Point"
      },
      "properties": {
        "city": "Maungdaw",
        "country": "Burma",
        "lat": 20.8167,
        "lng": 92.3667,
        "population": 400000
      },
      "type": "Feature"
    },
    {
      "geometry": {
        "coordinates": [
          112.5497,
          37.8704
        ],
        "type": "Point"
      },
      "properties": {
        "city": "Taiyuan",
        "country": "China",
        "lat": 37.8704,
        "lng": 112.5497,
        "population": 3875053
      },
      "type": "Feature"
    },
    {
      "geometry": {
        "coordinates": [
          137.1744,
          34.9543
        ],
        "type": "Point"
      },
      "properties": {
        "city": "Okazaki",
        "country": "Japan",
        "lat": 34.9543,
        "lng": 137.1744,
        "population": 385376
      },
      "type": "Feature"
    },
    {
      "geometry": {
        "coordinates": [
          -90.5875,
          14.5269
        ],
        "type": "Point"
      },
      "properties": {
        "city": "Villa Nueva",
        "country": "Guatemala",
        "lat": 14.5269,
        "lng": -90.5875,
        "population": 492480
      },
      "type": "Feature"
    },
    {
      "geometry": {
        "coordinates": [
          44.6436,
          33.7447
        ],
        "type": "Point"
      },
      "properties": {
        "city": "Ba\u2018q\u016bbah",
        "country": "Iraq",
        "lat": 33.7447,
        "lng": 44.6436,
        "population": 467900
      },
      "type": "Feature"
    },
    {
      "geometry": {
        "coordinates": [
          114.933,
          25.831
        ],
        "type": "Point"
      },
      "properties": {
        "city": "Ganzhou",
        "country": "China",
        "lat": 25.831,
        "lng": 114.933,
        "population": 7396873
      },
      "type": "Feature"
    },
    {
      "geometry": {
        "coordinates": [
          -81.4169,
          28.3041
        ],
        "type": "Point"
      },
      "properties": {
        "city": "Kissimmee",
        "country": "United States",
        "lat": 28.3041,
        "lng": -81.4169,
        "population": 442790
      },
      "type": "Feature"
    },
    {
      "geometry": {
        "coordinates": [
          113.5461,
          22.2006
        ],
        "type": "Point"
      },
      "properties": {
        "city": "Macau",
        "country": "Macau",
        "lat": 22.2006,
        "lng": 113.5461,
        "population": 568700
      },
      "type": "Feature"
    },
    {
      "geometry": {
        "coordinates": [
          118.507,
          31.669
        ],
        "type": "Point"
      },
      "properties": {
        "city": "Ma\u2019anshan",
        "country": "China",
        "lat": 31.669,
        "lng": 118.507,
        "population": 2159930
      },
      "type": "Feature"
    },
    {
      "geometry": {
        "coordinates": [
          -46.528,
          -23.6533
        ],
        "type": "Point"
      },
      "properties": {
        "city": "Santo Andr\u00e9",
        "country": "Brazil",
        "lat": -23.6533,
        "lng": -46.528,
        "population": 748919
      },
      "type": "Feature"
    },
    {
      "geometry": {
        "coordinates": [
          -90.5133,
          14.6417
        ],
        "type": "Point"
      },
      "properties": {
        "city": "Guatemala City",
        "country": "Guatemala",
        "lat": 14.6417,
        "lng": -90.5133,
        "population": 3014000
      },
      "type": "Feature"
    },
    {
      "geometry": {
        "coordinates": [
          101.94,
          2.7105
        ],
        "type": "Point"
      },
      "properties": {
        "city": "Seremban",
        "country": "Malaysia",
        "lat": 2.7105,
        "lng": 101.94,
        "population": 419536
      },
      "type": "Feature"
    },
    {
      "geometry": {
        "coordinates": [
          112.4254,
          29.7209
        ],
        "type": "Point"
      },
      "properties": {
        "city": "Xiulin",
        "country": "China",
        "lat": 29.7209,
        "lng": 112.4254,
        "population": 473707
      },
      "type": "Feature"
    },
    {
      "geometry": {
        "coordinates": [
          32.6,
          -3.8375
        ],
        "type": "Point"
      },
      "properties": {
        "city": "Kahama",
        "country": "Tanzania",
        "lat": -3.8375,
        "lng": 32.6,
        "population": 453654
      },
      "type": "Feature"
    },
    {
      "geometry": {
        "coordinates": [
          130.7078,
          32.8031
        ],
        "type": "Point"
      },
      "properties": {
        "city": "Kumamoto",
        "country": "Japan",
        "lat": 32.8031,
        "lng": 130.7078,
        "population": 738385
      },
      "type": "Feature"
    },
    {
      "geometry": {
        "coordinates": [
          73.1056,
          49.8028
        ],
        "type": "Point"
      },
      "properties": {
        "city": "Qaraghandy",
        "country": "Kazakhstan",
        "lat": 49.8028,
        "lng": 73.1056,
        "population": 515632
      },
      "type": "Feature"
    },
    {
      "geometry": {
        "coordinates": [
          120.756,
          30.747
        ],
        "type": "Point"
      },
      "properties": {
        "city": "Jiaxing",
        "country": "China",
        "lat": 30.747,
        "lng": 120.756,
        "population": 1518654
      },
      "type": "Feature"
    },
    {
      "geometry": {
        "coordinates": [
          82.68,
          22.35
        ],
        "type": "Point"
      },
      "properties": {
        "city": "Kolga",
        "country": "India",
        "lat": 22.35,
        "lng": 82.68,
        "population": 365253
      },
      "type": "Feature"
    },
    {
      "geometry": {
        "coordinates": [
          89.1895,
          42.9512
        ],
        "type": "Point"
      },
      "properties": {
        "city": "Turpan",
        "country": "China",
        "lat": 42.9512,
        "lng": 89.1895,
        "population": 622903
      },
      "type": "Feature"
    },
    {
      "geometry": {
        "coordinates": [
          32.0,
          36.55
        ],
        "type": "Point"
      },
      "properties": {
        "city": "Alanya",
        "country": "Turkey",
        "lat": 36.55,
        "lng": 32.0,
        "population": 364180
      },
      "type": "Feature"
    },
    {
      "geometry": {
        "coordinates": [
          139.0364,
          37.9161
        ],
        "type": "Point"
      },
      "properties": {
        "city": "Niigata",
        "country": "Japan",
        "lat": 37.9161,
        "lng": 139.0364,
        "population": 790646
      },
      "type": "Feature"
    },
    {
      "geometry": {
        "coordinates": [
          -4.42,
          36.7194
        ],
        "type": "Point"
      },
      "properties": {
        "city": "M\u00e1laga",
        "country": "Spain",
        "lat": 36.7194,
        "lng": -4.42,
        "population": 967250
      },
      "type": "Feature"
    },
    {
      "geometry": {
        "coordinates": [
          -121.3109,
          37.9765
        ],
        "type": "Point"
      },
      "properties": {
        "city": "Stockton",
        "country": "United States",
        "lat": 37.9765,
        "lng": -121.3109,
        "population": 416005
      },
      "type": "Feature"
    },
    {
      "geometry": {
        "coordinates": [
          86.0667,
          55.3667
        ],
        "type": "Point"
      },
      "properties": {
        "city": "Kemerovo",
        "country": "Russia",
        "lat": 55.3667,
        "lng": 86.0667,
        "population": 544600
      },
      "type": "Feature"
    },
    {
      "geometry": {
        "coordinates": [
          120.396,
          37.359
        ],
        "type": "Point"
      },
      "properties": {
        "city": "Luofeng",
        "country": "China",
        "lat": 37.359,
        "lng": 120.396,
        "population": 543127
      },
      "type": "Feature"
    },
    {
      "geometry": {
        "coordinates": [
          121.148,
          41.129
        ],
        "type": "Point"
      },
      "properties": {
        "city": "Jinzhou",
        "country": "China",
        "lat": 41.129,
        "lng": 121.148,
        "population": 2703853
      },
      "type": "Feature"
    },
    {
      "geometry": {
        "coordinates": [
          -97.7522,
          30.3005
        ],
        "type": "Point"
      },
      "properties": {
        "city": "Austin",
        "country": "United States",
        "lat": 30.3005,
        "lng": -97.7522,
        "population": 1915031
      },
      "type": "Feature"
    },
    {
      "geometry": {
        "coordinates": [
          77.022,
          28.99
        ],
        "type": "Point"
      },
      "properties": {
        "city": "Son\u012bpat",
        "country": "India",
        "lat": 28.99,
        "lng": 77.022,
        "population": 402000
      },
      "type": "Feature"
    },
    {
      "geometry": {
        "coordinates": [
          113.35,
          34.7833
        ],
        "type": "Point"
      },
      "properties": {
        "city": "Suohe",
        "country": "China",
        "lat": 34.7833,
        "lng": 113.35,
        "population": 730135
      },
      "type": "Feature"
    },
    {
      "geometry": {
        "coordinates": [
          -87.9675,
          43.0642
        ],
        "type": "Point"
      },
      "properties": {
        "city": "Milwaukee",
        "country": "United States",
        "lat": 43.0642,
        "lng": -87.9675,
        "population": 1290221
      },
      "type": "Feature"
    },
    {
      "geometry": {
        "coordinates": [
          -79.5347,
          8.9711
        ],
        "type": "Point"
      },
      "properties": {
        "city": "Panama City",
        "country": "Panama",
        "lat": 8.9711,
        "lng": -79.5347,
        "population": 880691
      },
      "type": "Feature"
    },
    {
      "geometry": {
        "coordinates": [
          37.1681,
          36.2319
        ],
        "type": "Point"
      },
      "properties": {
        "city": "Aleppo",
        "country": "Syria",
        "lat": 36.2319,
        "lng": 37.1681,
        "population": 2003671
      },
      "type": "Feature"
    },
    {
      "geometry": {
        "coordinates": [
          74.0789,
          32.5739
        ],
        "type": "Point"
      },
      "properties": {
        "city": "Gujrat",
        "country": "Pakistan",
        "lat": 32.5739,
        "lng": 74.0789,
        "population": 390533
      },
      "type": "Feature"
    },
    {
      "geometry": {
        "coordinates": [
          90.3944,
          23.7289
        ],
        "type": "Point"
      },
      "properties": {
        "city": "Dhaka",
        "country": "Bangladesh",
        "lat": 23.7289,
        "lng": 90.3944,
        "population": 19134000
      },
      "type": "Feature"
    },
    {
      "geometry": {
        "coordinates": [
          78.145,
          8.8056
        ],
        "type": "Point"
      },
      "properties": {
        "city": "Tuticorin",
        "country": "India",
        "lat": 8.8056,
        "lng": 78.145,
        "population": 500000
      },
      "type": "Feature"
    },
    {
      "geometry": {
        "coordinates": [
          -122.0016,
          37.9722
        ],
        "type": "Point"
      },
      "properties": {
        "city": "Concord",
        "country": "United States",
        "lat": 37.9722,
        "lng": -122.0016,
        "population": 525233
      },
      "type": "Feature"
    },
    {
      "geometry": {
        "coordinates": [
          36.1606,
          36.2025
        ],
        "type": "Point"
      },
      "properties": {
        "city": "Hatay",
        "country": "Turkey",
        "lat": 36.2025,
        "lng": 36.1606,
        "population": 399045
      },
      "type": "Feature"
    },
    {
      "geometry": {
        "coordinates": [
          112.8598,
          26.4223
        ],
        "type": "Point"
      },
      "properties": {
        "city": "Leiyang",
        "country": "China",
        "lat": 26.4223,
        "lng": 112.8598,
        "population": 1140675
      },
      "type": "Feature"
    },
    {
      "geometry": {
        "coordinates": [
          18.2558,
          0.0478
        ],
        "type": "Point"
      },
      "properties": {
        "city": "Mbandaka",
        "country": "Congo (Kinshasa)",
        "lat": 0.0478,
        "lng": 18.2558,
        "population": 1187837
      },
      "type": "Feature"
    },
    {
      "geometry": {
        "coordinates": [
          -98.5238,
          29.4632
        ],
        "type": "Point"
      },
      "properties": {
        "city": "San Antonio",
        "country": "United States",
        "lat": 29.4632,
        "lng": -98.5238,
        "population": 2069843
      },
      "type": "Feature"
    },
    {
      "geometry": {
        "coordinates": [
          -121.4685,
          38.5677
        ],
        "type": "Point"
      },
      "properties": {
        "city": "Sacramento",
        "country": "United States",
        "lat": 38.5677,
        "lng": -121.4685,
        "population": 1962998
      },
      "type": "Feature"
    },
    {
      "geometry": {
        "coordinates": [
          75.92,
          17.68
        ],
        "type": "Point"
      },
      "properties": {
        "city": "Sol\u0101pur",
        "country": "India",
        "lat": 17.68,
        "lng": 75.92,
        "population": 951558
      },
      "type": "Feature"
    },
    {
      "geometry": {
        "coordinates": [
          127.1128,
          36.9922
        ],
        "type": "Point"
      },
      "properties": {
        "city": "Pyeongtaek",
        "country": "Korea, South",
        "lat": 36.9922,
        "lng": 127.1128,
        "population": 457873
      },
      "type": "Feature"
    },
    {
      "geometry": {
        "coordinates": [
          127.4833,
          36.6333
        ],
        "type": "Point"
      },
      "properties": {
        "city": "Cheongju",
        "country": "Korea, South",
        "lat": 36.6333,
        "lng": 127.4833,
        "population": 852018
      },
      "type": "Feature"
    },
    {
      "geometry": {
        "coordinates": [
          124.8413,
          1.4931
        ],
        "type": "Point"
      },
      "properties": {
        "city": "Manado",
        "country": "Indonesia",
        "lat": 1.4931,
        "lng": 124.8413,
        "population": 461636
      },
      "type": "Feature"
    },
    {
      "geometry": {
        "coordinates": [
          120.6993,
          27.9938
        ],
        "type": "Point"
      },
      "properties": {
        "city": "Wenzhou",
        "country": "China",
        "lat": 27.9938,
        "lng": 120.6993,
        "population": 3604446
      },
      "type": "Feature"
    },
    {
      "geometry": {
        "coordinates": [
          -110.9542,
          29.0989
        ],
        "type": "Point"
      },
      "properties": {
        "city": "Hermosillo",
        "country": "Mexico",
        "lat": 29.0989,
        "lng": -110.9542,
        "population": 855563
      },
      "type": "Feature"
    },
    {
      "geometry": {
        "coordinates": [
          -113.4903,
          53.5344
        ],
        "type": "Point"
      },
      "properties": {
        "city": "Edmonton",
        "country": "Canada",
        "lat": 53.5344,
        "lng": -113.4903,
        "population": 1151635
      },
      "type": "Feature"
    },
    {
      "geometry": {
        "coordinates": [
          62.2031,
          34.3419
        ],
        "type": "Point"
      },
      "properties": {
        "city": "Her\u0101t",
        "country": "Afghanistan",
        "lat": 34.3419,
        "lng": 62.2031,
        "population": 556205
      },
      "type": "Feature"
    },
    {
      "geometry": {
        "coordinates": [
          139.316,
          35.6664
        ],
        "type": "Point"
      },
      "properties": {
        "city": "Hachi\u014dji",
        "country": "Japan",
        "lat": 35.6664,
        "lng": 139.316,
        "population": 575721
      },
      "type": "Feature"
    },
    {
      "geometry": {
        "coordinates": [
          29.19,
          40.8872
        ],
        "type": "Point"
      },
      "properties": {
        "city": "Kartal",
        "country": "Turkey",
        "lat": 40.8872,
        "lng": 29.19,
        "population": 483418
      },
      "type": "Feature"
    },
    {
      "geometry": {
        "coordinates": [
          80.1098,
          13.1147
        ],
        "type": "Point"
      },
      "properties": {
        "city": "\u0100vadi",
        "country": "India",
        "lat": 13.1147,
        "lng": 80.1098,
        "population": 345996
      },
      "type": "Feature"
    },
    {
      "geometry": {
        "coordinates": [
          13.6914,
          11.0861
        ],
        "type": "Point"
      },
      "properties": {
        "city": "Gwoza",
        "country": "Nigeria",
        "lat": 11.0861,
        "lng": 13.6914,
        "population": 388600
      },
      "type": "Feature"
    },
    {
      "geometry": {
        "coordinates": [
          43.1481,
          11.5944
        ],
        "type": "Point"
      },
      "properties": {
        "city": "Djibouti",
        "country": "Djibouti",
        "lat": 11.5944,
        "lng": 43.1481,
        "population": 603900
      },
      "type": "Feature"
    },
    {
      "geometry": {
        "coordinates": [
          44.7925,
          41.7225
        ],
        "type": "Point"
      },
      "properties": {
        "city": "Tbilisi",
        "country": "Georgia",
        "lat": 41.7225,
        "lng": 44.7925,
        "population": 1118035
      },
      "type": "Feature"
    },
    {
      "geometry": {
        "coordinates": [
          119.527,
          35.417
        ],
        "type": "Point"
      },
      "properties": {
        "city": "Rizhao",
        "country": "China",
        "lat": 35.417,
        "lng": 119.527,
        "population": 2801013
      },
      "type": "Feature"
    },
    {
      "geometry": {
        "coordinates": [
          7.4833,
          5.5333
        ],
        "type": "Point"
      },
      "properties": {
        "city": "Umuahia",
        "country": "Nigeria",
        "lat": 5.5333,
        "lng": 7.4833,
        "population": 359230
      },
      "type": "Feature"
    },
    {
      "geometry": {
        "coordinates": [
          127.2167,
          37.6333
        ],
        "type": "Point"
      },
      "properties": {
        "city": "Yanggok",
        "country": "Korea, South",
        "lat": 37.6333,
        "lng": 127.2167,
        "population": 732376
      },
      "type": "Feature"
    },
    {
      "geometry": {
        "coordinates": [
          13.0333,
          55.5833
        ],
        "type": "Point"
      },
      "properties": {
        "city": "Malm\u00f6",
        "country": "Sweden",
        "lat": 55.5833,
        "lng": 13.0333,
        "population": 360249
      },
      "type": "Feature"
    },
    {
      "geometry": {
        "coordinates": [
          -35.015,
          -8.1128
        ],
        "type": "Point"
      },
      "properties": {
        "city": "Jaboat\u00e3o dos Guararapes",
        "country": "Brazil",
        "lat": -8.1128,
        "lng": -35.015,
        "population": 581556
      },
      "type": "Feature"
    },
    {
      "geometry": {
        "coordinates": [
          114.1833,
          22.3167
        ],
        "type": "Point"
      },
      "properties": {
        "city": "Kowloon",
        "country": "Hong Kong",
        "lat": 22.3167,
        "lng": 114.1833,
        "population": 2108419
      },
      "type": "Feature"
    },
    {
      "geometry": {
        "coordinates": [
          111.664,
          27.692
        ],
        "type": "Point"
      },
      "properties": {
        "city": "Lianyuan",
        "country": "China",
        "lat": 27.692,
        "lng": 111.664,
        "population": 862099
      },
      "type": "Feature"
    },
    {
      "geometry": {
        "coordinates": [
          107.1751,
          34.3609
        ],
        "type": "Point"
      },
      "properties": {
        "city": "Guozhen",
        "country": "China",
        "lat": 34.3609,
        "lng": 107.1751,
        "population": 3321853
      },
      "type": "Feature"
    },
    {
      "geometry": {
        "coordinates": [
          56.3167,
          58.0
        ],
        "type": "Point"
      },
      "properties": {
        "city": "Perm",
        "country": "Russia",
        "lat": 58.0,
        "lng": 56.3167,
        "population": 1026908
      },
      "type": "Feature"
    },
    {
      "geometry": {
        "coordinates": [
          127.2,
          37.2333
        ],
        "type": "Point"
      },
      "properties": {
        "city": "Tongjin",
        "country": "Korea, South",
        "lat": 37.2333,
        "lng": 127.2,
        "population": 1076369
      },
      "type": "Feature"
    },
    {
      "geometry": {
        "coordinates": [
          -86.2514,
          12.1364
        ],
        "type": "Point"
      },
      "properties": {
        "city": "Managua",
        "country": "Nicaragua",
        "lat": 12.1364,
        "lng": -86.2514,
        "population": 1051236
      },
      "type": "Feature"
    },
    {
      "geometry": {
        "coordinates": [
          -80.9036,
          34.0378
        ],
        "type": "Point"
      },
      "properties": {
        "city": "Columbia",
        "country": "United States",
        "lat": 34.0378,
        "lng": -80.9036,
        "population": 605083
      },
      "type": "Feature"
    },
    {
      "geometry": {
        "coordinates": [
          128.911,
          40.458
        ],
        "type": "Point"
      },
      "properties": {
        "city": "Tanch\u2019\u014fn",
        "country": "Korea, North",
        "lat": 40.458,
        "lng": 128.911,
        "population": 345875
      },
      "type": "Feature"
    },
    {
      "geometry": {
        "coordinates": [
          53.1833,
          56.8333
        ],
        "type": "Point"
      },
      "properties": {
        "city": "Izhevsk",
        "country": "Russia",
        "lat": 56.8333,
        "lng": 53.1833,
        "population": 618776
      },
      "type": "Feature"
    },
    {
      "geometry": {
        "coordinates": [
          -110.8787,
          32.1541
        ],
        "type": "Point"
      },
      "properties": {
        "city": "Tucson",
        "country": "United States",
        "lat": 32.1541,
        "lng": -110.8787,
        "population": 879871
      },
      "type": "Feature"
    },
    {
      "geometry": {
        "coordinates": [
          11.5167,
          3.8667
        ],
        "type": "Point"
      },
      "properties": {
        "city": "Yaound\u00e9",
        "country": "Cameroon",
        "lat": 3.8667,
        "lng": 11.5167,
        "population": 2440462
      },
      "type": "Feature"
    },
    {
      "geometry": {
        "coordinates": [
          107.5548,
          -6.8712
        ],
        "type": "Point"
      },
      "properties": {
        "city": "Cimahi",
        "country": "Indonesia",
        "lat": -6.8712,
        "lng": 107.5548,
        "population": 586580
      },
      "type": "Feature"
    },
    {
      "geometry": {
        "coordinates": [
          32.4922,
          37.8814
        ],
        "type": "Point"
      },
      "properties": {
        "city": "Sel\u00e7uklu",
        "country": "Turkey",
        "lat": 37.8814,
        "lng": 32.4922,
        "population": 690667
      },
      "type": "Feature"
    },
    {
      "geometry": {
        "coordinates": [
          76.5222,
          9.5916
        ],
        "type": "Point"
      },
      "properties": {
        "city": "Kottayam",
        "country": "India",
        "lat": 9.5916,
        "lng": 76.5222,
        "population": 571856
      },
      "type": "Feature"
    },
    {
      "geometry": {
        "coordinates": [
          38.3194,
          38.3486
        ],
        "type": "Point"
      },
      "properties": {
        "city": "Malatya",
        "country": "Turkey",
        "lat": 38.3486,
        "lng": 38.3194,
        "population": 485484
      },
      "type": "Feature"
    },
    {
      "geometry": {
        "coordinates": [
          -8.4101,
          41.3703
        ],
        "type": "Point"
      },
      "properties": {
        "city": "Aves",
        "country": "Portugal",
        "lat": 41.3703,
        "lng": -8.4101,
        "population": 425411
      },
      "type": "Feature"
    },
    {
      "geometry": {
        "coordinates": [
          116.122,
          24.289
        ],
        "type": "Point"
      },
      "properties": {
        "city": "Meizhou",
        "country": "China",
        "lat": 24.289,
        "lng": 116.122,
        "population": 3873239
      },
      "type": "Feature"
    },
    {
      "geometry": {
        "coordinates": [
          29.0821,
          40.11
        ],
        "type": "Point"
      },
      "properties": {
        "city": "Y\u0131ld\u0131r\u0131m",
        "country": "Turkey",
        "lat": 40.11,
        "lng": 29.0821,
        "population": 655856
      },
      "type": "Feature"
    },
    {
      "geometry": {
        "coordinates": [
          -73.7987,
          42.6664
        ],
        "type": "Point"
      },
      "properties": {
        "city": "Albany",
        "country": "United States",
        "lat": 42.6664,
        "lng": -73.7987,
        "population": 602242
      },
      "type": "Feature"
    },
    {
      "geometry": {
        "coordinates": [
          72.7833,
          40.5333
        ],
        "type": "Point"
      },
      "properties": {
        "city": "Osh",
        "country": "Kyrgyzstan",
        "lat": 40.5333,
        "lng": 72.7833,
        "population": 353080
      },
      "type": "Feature"
    },
    {
      "geometry": {
        "coordinates": [
          85.01,
          24.75
        ],
        "type": "Point"
      },
      "properties": {
        "city": "Gaya",
        "country": "India",
        "lat": 24.75,
        "lng": 85.01,
        "population": 474093
      },
      "type": "Feature"
    },
    {
      "geometry": {
        "coordinates": [
          116.638,
          36.934
        ],
        "type": "Point"
      },
      "properties": {
        "city": "Yucheng",
        "country": "China",
        "lat": 36.934,
        "lng": 116.638,
        "population": 488014
      },
      "type": "Feature"
    },
    {
      "geometry": {
        "coordinates": [
          117.6389,
          26.2634
        ],
        "type": "Point"
      },
      "properties": {
        "city": "Sanming",
        "country": "China",
        "lat": 26.2634,
        "lng": 117.6389,
        "population": 2486450
      },
      "type": "Feature"
    },
    {
      "geometry": {
        "coordinates": [
          -51.9389,
          -23.425
        ],
        "type": "Point"
      },
      "properties": {
        "city": "Maring\u00e1",
        "country": "Brazil",
        "lat": -23.425,
        "lng": -51.9389,
        "population": 409657
      },
      "type": "Feature"
    },
    {
      "geometry": {
        "coordinates": [
          -64.6333,
          10.2
        ],
        "type": "Point"
      },
      "properties": {
        "city": "Puerto La Cruz",
        "country": "Venezuela",
        "lat": 10.2,
        "lng": -64.6333,
        "population": 454312
      },
      "type": "Feature"
    },